LocalAuthorityCode,LocalAuthorityName,SiteCode,SiteName,SiteType,DateClosed,DateOpened,Latitude,Longitude,LatitudeWGS84,LongitudeWGS84,Northing,Easting
27,Richmond,TD0,"- National Physical Laboratory, Teddington",Suburban,2018-01-01 00:00:00,1996-08-08 00:00:00,51.4243043441456,-0.345714576446947,6696103.27675,-37808.8858115,515004.02694524825,170830.04233763213
1,Barking and Dagenham,BG3,Barking and Dagenham - North Street,Kerbside,2011-05-25 00:00:00,2007-03-16 00:00:00,51.540444,0.074418,6717454.5833,8284.17386585,543842.656649318,184486.4572335174
1,Barking and Dagenham,BG1,Barking and Dagenham - Rush Green,Suburban,,1999-11-02 00:00:00,51.563752,0.177891,6721627.34498,19802.7355367,550939.6521256693,187286.55341723666
1,Barking and Dagenham,BG2,Barking and Dagenham - Scrattons Farm,Suburban,,1999-10-17 00:00:00,51.529389,0.132857,6715476.18683,14789.5735883,547930.31419576,183373.8269306298
2,Barnet,BN2,Barnet - Finchley,Urban Background,2012-04-20 00:00:00,2000-08-09 13:00:00,51.591901,-0.205992,6726669.62886,-22930.9245475,524259.85315402073,189693.949351877
2,Barnet,BN3,Barnet - Strawberry Vale ,Urban Background,2002-05-15 00:00:00,2000-08-14 14:00:00,51.6008848453589,-0.172297542087178,6728279.54795,-19180.0746501,526568.5017166076,190750.7012757092
2,Barnet,BN1,Barnet - Tally Ho Corner,Kerbside,2012-04-20 00:00:00,1998-12-20 12:00:00,51.614675,-0.176607,6730751.38494,-19659.8013105,526231.83456612,192276.61484609847
3,Bexley,BX5,Bexley - Bedonwell ,Suburban,2004-04-08 00:00:00,1999-10-06 13:00:00,51.4788023547334,0.133873839062683,6706429.353,14902.767595,548164.8554616894,177751.3335424078
3,Bexley,BX2,Bexley - Belvedere,Suburban,,1998-01-24 15:00:00,51.4906102082147,0.158914493927518,6708546.55118,17686.6633362,549864.6374487355,179115.17651959072
3,Bexley,BX0,Bexley - Belvedere FDMS,Suburban,2022-01-28 00:00:00,2004-04-28 00:00:00,51.4906102082147,0.158914493927518,6708546.55118,17686.6633362,549864.6374487355,179115.17651959072
3,Bexley,BQ7,Bexley - Belvedere West,Urban Background,,2010-08-24 00:00:00,51.4946486813055,0.137279111232178,6709278.28804,14951.9364255,548349.8250851275,179520.12267489082
3,Bexley,BQ8,Bexley - Belvedere West FDMS,Urban Background,2022-02-23 00:00:00,2010-08-24 00:00:00,51.4946486813055,0.137279111232178,6709278.28804,14951.9364255,548349.8250851275,179520.12267489082
3,Bexley,BX4,Bexley - Erith,Industrial,2014-12-19 00:00:00,1999-04-28 00:00:00,51.477670796298,0.190836225974902,6706230.53407,21238.8682874,552123.3608402634,177742.34876862157
3,Bexley,BQ6,Bexley - Manor Road East Gravimetric,Industrial,2014-10-28 00:00:00,2010-02-12 00:00:00,51.477670796298,0.190836225974902,6706369.57357,20619.592703,552123.3608402634,177742.34876862157
3,Bexley,BQ5,Bexley - Manor Road West Gravimetric,Industrial,2014-10-28 00:00:00,1999-04-28 09:00:00,51.4781935083933,0.187404883999095,6706322.58301,20868.1743831,551883.3906171891,177793.34181285085
3,Bexley,BX1,Bexley - Slade Green,Suburban,,1994-05-25 00:00:00,51.4659832746662,0.184877126994369,6704140.10457,20577.2727637,551748.4130952875,176430.50430066398
3,Bexley,BX9,Bexley - Slade Green FDMS,Suburban,2020-10-01 00:00:00,2008-10-21 00:00:00,51.4659832746662,0.184877126994369,6704140.10457,20577.2727637,551748.4130952875,176430.50430066398
3,Bexley,BQ9,Bexley - Slade Green Fidas,Suburban,,2020-10-01 00:00:00,51.4659832746662,0.184877126994369,6704140.10457,20577.2727637,551748.4130952875,176430.50430066398
3,Bexley,BX7,Bexley - Thames Road North,Roadside,2010-03-23 00:00:00,2004-04-08 00:00:00,51.457159,0.195294,6702561.75534,21740.028635,552501.2460037025,175471.02043134318
3,Bexley,BX6,Bexley - Thames Road North FDMS,Roadside,2010-03-23 00:00:00,2004-04-08 00:00:00,51.457159,0.195294,6702561.75534,21740.028635,552501.2460037025,175471.02043134318
3,Bexley,BX8,Bexley - Thames Road South,Roadside,2010-04-15 00:00:00,2004-04-06 00:00:00,51.456887,0.194582,6702513.16149,21660.7691575,552452.6970923332,175439.29563466745
3,Bexley,BX3,Bexley - Thamesmead,Suburban,2018-03-12 00:00:00,1998-01-24 15:00:00,51.510808,0.121617,6712152.02371,13538.3425118,547210.7272922322,181285.19375632668
4,Brent,BT8,Brent - ARK Franklin Primary Academy,Roadside,,2017-10-30 00:00:00,51.5324054617809,-0.217718908639377,6716981.19188,-27584.1905821,523608.9026362507,183058.61090463397
4,Brent,BT3,Brent - Harlesden,Roadside,2006-09-27 00:00:00,2001-10-31 00:00:00,51.5370800298103,-0.249273425299457,6716852.51826,-27748.9907726,521408.17580422375,183525.5471661149
4,Brent,BT4,Brent - Ikea,Roadside,,2003-06-20 06:00:00,51.552476,-0.258089,6719608.36938,-28730.3360593,520756.1124516834,185222.87711801383
4,Brent,BT2,Brent - Ikea Car Park,Roadside,2003-06-16 00:00:00,2001-06-17 12:00:00,51.5524326273922,-0.260338843869077,6719600.60445,-28980.7875332,520600.2699956915,185214.34225745426
4,Brent,BT6,Brent - John Keble Primary School,Roadside,,2006-11-01 00:00:00,51.537799,-0.247793,6716981.19188,-27584.1905821,521508.9171575463,183607.94931198342
4,Brent,BT1,Brent - Kingsbury,Suburban,2010-11-16 00:00:00,1996-01-26 00:00:00,51.589618,-0.275519,6726260.56244,-30670.6347839,519450.47349933384,189324.19774032646
4,Brent,BT5,Brent - Neasden Lane,Industrial,,2004-02-29 23:00:00,51.552656,-0.248774,6719640.59457,-27693.3950026,521401.34025340446,185258.31218955404
4,Brent,BT7,Brent - St Marys Primary School,Urban Background,2010-12-21 00:00:00,2008-01-04 00:00:00,51.534718,-0.196664,6716429.80163,-21892.5363374,525062.704791737,183351.53038551693
5,Bromley,BY5,Bromley - Biggin Hill,Suburban,2010-07-09 08:45:00,1996-04-01 00:00:00,51.314562,0.042019,6677125.85831,4677.53368364,542296.3908150226,159308.1784773629
5,Bromley,BY7,Bromley - Harwood Avenue,Roadside,,1998-07-06 11:00:00,51.405546,0.018882,6693346.07386,2101.93462516,540405.7183191846,169379.70009356143
5,Bromley,BY1,Bromley - Rent Office,Urban Background,1996-01-11 21:00:00,1993-01-01 00:00:00,51.4132338948359,0.00721471618770671,6694718.1147,803.138532233,539570.9601055883,170212.20420562723
5,Bromley,BY4,Bromley - Tweedy Rd,Roadside,1998-07-06 10:45:00,1996-01-28 11:00:00,51.403834810795,0.020390228913718,6693040.71326,2269.82989983,540515.8462175459,169192.32950267816
6,Camden,BL0,Camden - Bloomsbury,Urban Background,,1992-01-23 00:00:00,51.522287,-0.125848,6714205.47041,-14009.3352774,530008.870313578,182092.75543489904
6,Camden,KX4,Camden - Coopers Lane,Industrial,2020-07-01 00:00:00,2009-07-01 00:00:00,51.533238,-0.129594,6716164.9471449,-14426.3380898635,529717.9015085194,183303.75734074303
6,Camden,CD9,Camden - Euston Road,Roadside,2020-07-02 00:00:00,2011-01-29 00:00:00,51.527975,-0.1287742,6715175.15109,-14366.1370973,529789.7212842377,182720.01348897116
6,Camden,IM1,Camden - Holborn (Bee Midtown),Kerbside,,2014-02-06 00:00:00,51.5173675146177,-0.1201947113171,6713325.37384719,-13380.0140598641,530415.0580950005,181555.81503245185
6,Camden,CD3,Camden - Shaftesbury Avenue,Roadside,2016-11-04 00:00:00,2000-04-20 06:00:00,51.515532,-0.127027,6712997.0244,-14140.580957,529946.317512568,181339.56807069556
6,Camden,CD4,Camden - St Martins College (NOX 1),Urban Background,2010-07-13 00:00:00,2007-06-22 00:00:00,51.518846,-0.12034,6713589.86508,-13396.1875221,530400.7559341755,181719.94974848384
6,Camden,CD5,Camden - St Martins College (NOX 2),Urban Background,2011-01-15 00:00:00,2007-06-22 00:00:00,51.518846,-0.12034,6713589.86508,-13396.1875221,530400.7559341755,181719.94974848384
6,Camden,CD1,Camden - Swiss Cottage,Kerbside,,1996-04-16 13:30:00,51.544219,-0.175284,6718130.26521,-19512.5256242,526518.9576414606,184444.7289136872
7,City of London,CT4,City of London - Beech Street,Roadside,,2003-01-01 00:00:00,51.520225273171,-0.0961060474176381,6713836.61564,-10698.4762607,532077.8488273689,181916.77781339356
7,City of London,CT2,City of London - Farringdon Street,Kerbside,,2003-01-01 00:00:00,51.5145253362314,-0.104515626337876,6712816.9511,-11634.6263039,531510.9223074905,181267.85339790653
7,City of London,CT9,City of London - Guildhall,Urban Background,,2022-01-24 00:00:00,51.515907,-0.092023986,6713064.10589633,-10244.0632622873,532373.5290937718,181444.00465048317
7,City of London,CT1,City of London - Senator House,Urban Background,2013-01-16 00:00:00,2001-10-10 14:45:00,51.511491,-0.095807,6712274.18922,-10665.1864544,532123.8672346139,180946.15216455192
7,City of London,CT3,City of London - The Aldgate School,Urban Background,,2003-01-01 00:00:00,51.513847178423,-0.077765681752,6712695.6436,-8656.83609382,533368.6902470015,181240.86327756476
7,City of London,CTA,City of London - Upper Thames Street,Roadside,,2022-05-12 00:00:00,51.5105969158391,-0.0921029031922594,,,532383.4495423727,180853.43314075627
7,City of London,CT8,City of London - Upper Thames Street,Roadside,2021-09-13 00:00:00,2007-04-22 00:00:00,51.5095436853913,-0.0873571979556188,6711925.88558654,-9724.55879354668,532715.7738545188,180744.92025555822
7,City of London,CTA,City of London - Upper Thames Street,Roadside,,2022-05-12 00:00:00,51.5105969158391,-0.0921029031922594,,,532383.4495423727,180853.43314075627
7,City of London,CT6,City of London - Walbrook Wharf,Roadside,2023-01-09 00:00:00,2007-04-01 00:00:00,51.510499,-0.091634,6712096.7547,-10200.6502194,532416.2666132984,180843.39423602395
8,Croydon,CR6,Croydon - Euston Road,Suburban,2009-05-22 00:00:00,2001-01-26 08:00:00,51.3786978969719,-0.113796403332539,6688556.36343,-12667.7576731,531256.0154055126,166148.66015647288
8,Croydon,CR4,Croydon - George Street,Roadside,2015-04-02 00:00:00,1999-09-20 07:45:00,51.374312,-0.096503,6687774.18496,-10742.66482,532471.9834942318,165692.10446826258
8,Croydon,CR5,Croydon - Norbury,Kerbside,,2000-10-05 11:15:00,51.411349,-0.12311,6694381.70052,-13704.5425116,530514.9881125325,169762.45528243258
8,Croydon,CR8,Croydon - Norbury Manor,Urban Background,,2014-12-01 00:00:00,51.410039,-0.127523,6694147.90117935,-14195.7954244306,530211.8636520735,169608.94748649633
8,Croydon,CR9,Croydon - Park Lane,Roadside,,2015-11-02 00:00:00,51.3739530635378,-0.0967638468323854,6687714.0876655,-10771.7986892368,532454.8676564168,165651.72384283363
8,Croydon,CR2,Croydon - Purley Way,Roadside,2010-10-08 00:00:00,1994-08-08 13:00:00,51.362638,-0.117952,6685692.61527,-13130.356578,531012.6994272856,164355.55991280865
8,Croydon,CR7,Croydon - Purley Way A23,Roadside,,2012-01-19 00:00:00,51.3622305655403,-0.117604507351392,6685619.97595951,-13091.6738733508,531038.0500783543,164310.87901722328
8,Croydon,CR3,Croydon - Thornton Heath,Suburban,2013-02-08 00:00:00,1997-06-13 02:30:00,51.40401,-0.098814,6693071.97514,-10999.9241632,532225.5157721508,168989.9953993723
8,Croydon,CY1,Crystal Palace - Crystal Palace Parade,Roadside,2010-07-29 00:00:00,1999-09-29 23:00:00,51.424812,-0.075449,6696784.86785,-8398.94426086,533789.6408530837,171345.34600752432
9,Ealing,EA2,Ealing - Acton Town Hall,Roadside,2012-01-17 00:00:00,1996-09-09 15:00:00,51.506628,-0.267934,6711404.40353,-29826.2764462,520194.36184281495,180108.70077173033
9,Ealing,EG1,Ealing - Acton Town Hall (Partisol),Roadside,2006-10-04 00:00:00,2005-09-01 00:00:00,51.5065947337762,-0.267964378025953,,,520192.3414898931,180104.95193093928
9,Ealing,EA0,Ealing - Acton Town Hall FDMS,Roadside,2011-12-29 00:00:00,2005-04-29 09:00:00,51.506628,-0.267934,6711404.40353,-29826.2764462,520194.36184281495,180108.70077173033
9,Ealing,EI3,Ealing - Acton Vale ,Urban Background,,2017-11-23 00:00:00,51.5038527919816,-0.254668101620372,,,521122.2264195789,179821.98910496142
9,Ealing,EA9,Ealing - Court Way,Roadside,2006-06-01 00:00:00,2005-04-19 01:00:00,51.5225651213491,-0.264922414775277,6714255.22919,-29491.0283125,520361.31322449347,181885.73955230523
9,Ealing,EA1,Ealing - Ealing Town Hall,Urban Background,2012-01-10 00:00:00,1995-03-14 00:00:00,51.5133230466548,-0.307529015473585,6712606.88936,-34230.5207799,517429.6839982751,180788.86023310732
9,Ealing,EI0,Ealing - Greenford,Urban Background,2009-04-15 00:00:00,2008-03-25 00:00:00,51.5439296252862,-0.352801776049933,6718078.46846,-39273.7140608,514212.07280059665,184120.450206835
9,Ealing,EA6,Ealing - Hanger Lane Gyratory,Roadside,,2003-08-04 00:00:00,51.53085,-0.292488,6715737.619,-32559.6152231,518427.733124343,182761.9775936266
9,Ealing,EA8,Ealing - Horn Lane,Industrial,,2005-02-25 00:00:00,51.518948,-0.265617,6713608.11252,-29568.349186,520322.66732290096,181482.40000027517
9,Ealing,EI8,Ealing - Horn Lane TEOM,Industrial,,2005-02-25 00:00:00,51.5189160348806,-0.265652052386222,6713608.11252,-29568.349186,520320.31998130155,181478.78807877982
9,Ealing,EA7,Ealing - Southall,Urban Background,2016-01-26 00:00:00,2004-07-13 11:00:00,51.508549,-0.392179,6711747.97835,-43657.1665798,511568.384044258,180125.5797279305
9,Ealing,EI7,Ealing - Southall FDMS,Urban Background,2016-01-26 00:00:00,2011-12-28 11:00:00,51.5085164816243,-0.392208459173292,6711747.97835,-43657.1665798,511566.4193996752,180121.91897112897
9,Ealing,EI2,Ealing - Southall Railway,Roadside,2014-01-06 00:00:00,2011-04-08 00:00:00,51.5058699783726,-0.380241031512669,6711268.83378,-42328.2380067,512403.3159135886,179845.9549771715
9,Ealing,EI1,Ealing - Western Avenue,Roadside,,2010-03-19 00:00:00,51.5236078191481,-0.265502631799754,6714441.78131,-29555.6177762,520318.3181362057,182000.72564512613
10,Enfield,EN5,Enfield - Bowes Primary School,Roadside,,2004-07-01 00:00:00,51.613865,-0.125338,6730606.17452,-13952.562337,529783.1663393625,192276.35708033753
10,Enfield,EN1,Enfield - Bush Hill Park,Suburban,,1995-06-29 08:00:00,51.6450367266602,-0.0661800662229116,6736196.26651,-7367.1312726,533786.5787476341,195849.1170013997
10,Enfield,EN2,Enfield - Church Street,Roadside,2006-09-14 00:00:00,1997-12-21 16:00:00,51.6524364979749,-0.084224624306898,6737523.84763,-9375.8422901,532516.7343017277,196639.01791710046
10,Enfield,EN4,Enfield - Derby Road,Roadside,,2000-02-29 09:15:00,51.614864007,-0.0507658363689,6730785.26900193,-5651.2270542806,534942.4006697645,192522.51421566162
10,Enfield,EN7,Enfield - Prince of Wales School,Urban Background,,2012-07-09 00:00:00,51.66864334727,-0.02200720557,6740432.24987404,-2449.83091783529,536771.1946056151,198555.80371934912
10,Enfield,EN3,Enfield - Salisbury School,Urban Background,2008-07-28 00:00:00,1998-11-03 10:00:00,51.6374794858769,-0.0442461406121593,6734840.65766,-4925.45784251,535326.389490297,195049.21824452918
11,Greenwich,GN0,Greenwich - A206 Burrage Grove,Roadside,,2004-10-07 00:00:00,51.490532,0.074003,6708526.16964,8237.97627717,543971.200060083,178936.0452865555
11,Greenwich,GR7,Greenwich - Blackheath,Roadside,,2002-03-08 11:00:00,51.472504,-0.012381,6705303.66805,-1378.24661551,538029.6553127446,176765.170681144
11,Greenwich,GR4,Greenwich - Eltham,Suburban,,1995-01-01 00:00:00,51.45258,0.070766,6701743.73787,7877.63508548,543865.8790994548,174709.91680175962
3,Bexley,GB6,Greenwich - Falconwood,Roadside,,2000-10-18 09:15:00,51.4563,0.085606,6702408.29265,9529.61632885,544885.0022390957,175152.7872364978
3,Bexley,GB0,Greenwich - Falconwood FDMS,Roadside,,2009-03-16 00:00:00,51.4563,0.085606,6702408.29265,9529.61632885,544885.0022390957,175152.7872364978
11,Greenwich,GN4,Greenwich - Fiveways Sidcup Rd A20,Roadside,,2011-01-24 00:00:00,51.4346627060562,0.0642224671704697,6702412.5486,4535.53633525,543467.4630939716,172704.92014490522
11,Greenwich,GN6,Greenwich - John Harrison Way,Roadside,,2018-07-02 00:00:00,51.4937746695818,0.0107796237032558,6709105.93142177,1199.98222158954,539572.9233159173,179174.13265932788
11,Greenwich,GN2,Greenwich - Millennium Village,Industrial,2016-10-20 00:00:00,2004-08-01 00:00:00,51.492571,0.017697,6708890.72071,1970.02102857,540056.719821702,179053.51224288283
11,Greenwich,GN3,Greenwich - Plumstead High Street,Roadside,,2006-01-27 00:00:00,51.486957,0.095111,6707887.0378,10587.7080888,545447.6883605244,178580.28163667166
11,Greenwich,GR5,Greenwich - Trafalgar Road,Roadside,2015-12-02 00:00:00,1996-11-27 00:00:00,51.4834490664601,-0.000145562683198809,6707265.29552,-12.1338244965,538846.0189170209,178005.26984097148
11,Greenwich,GN5,Greenwich - Trafalgar Road (Hoskins St),Roadside,,2017-10-12 00:00:00,51.4839072533485,0.000407396935849736,6707265.29552,-12.1338244965,538883.0140821573,178057.26375563053
11,Greenwich,TL4,Greenwich - Tunnel Avenue,Roadside,,2020-12-04 00:00:00,51.495057,0.0041074676,6709055.39086079,-16687.4595868565,539105.9314116254,179304.0109469368
11,Greenwich,GR9,Greenwich - Westhorne Avenue,Roadside,,2004-10-01 00:00:00,51.456357,0.040725,6702418.47577,4533.48626256,541767.2836594647,175071.28481266112
11,Greenwich,GR8,Greenwich - Woolwich Flyover,Roadside,,2004-07-08 00:00:00,51.486884,0.017901,6707873.98752,1992.73020469,540088.3123588945,178421.57613980735
12,Hackney,HN0,Hackney - Amhurst Road,Roadside,2022-07-18 00:00:00,2022-04-01 00:00:00,51.5500559909969,-0.0633016026789864,,,534265.5617111132,185293.38175020067
12,Hackney,HK4,Hackney - Clapton,Urban Background,2011-08-31 00:00:00,1993-10-08 16:15:00,51.558884,-0.056388,6720755.66481,-6277.08344685,534718.730903452,186287.6847751618
12,Hackney,HN1,Hackney - Homerton Library,Roadside,2022-07-18 00:00:00,2022-04-01 00:00:00,51.5487472103442,-0.0418806967224562,,,535754.3760616004,185187.39975731072
12,Hackney,HK6,Hackney - Old Street,Roadside,,2000-05-31 23:00:00,51.526454,-0.08491,6714951.02162,-9452.13796326,532836.352301375,182629.62022120313
12,Hackney,HK9,Hackney - Queensbridge Road,Roadside,2022-07-18 00:00:00,2022-02-01 00:00:00,51.539324,-0.070078971,6717254.12686,-7801.1553,533827.23489213,184087.66859387857
13,Hammersmith and Fulham,HF1,Hammersmith and Fulham - Broadway,Roadside,2009-01-20 00:00:00,1999-08-23 18:15:00,51.4927663395234,-0.223601338284455,6708925.64615,-24891.1871185,523307.95802462916,178641.13815787414
13,Hammersmith and Fulham,HF2,Hammersmith and Fulham - Brook Green,Urban Background,2009-01-21 00:00:00,2003-07-28 12:00:00,51.4964961786764,-0.220502981077703,6709592.54596,-24546.279572,523512.9307200728,179061.08867072294
13,Hammersmith and Fulham,HF3,Hammersmith and Fulham - Scrubs Lane,Kerbside,2005-10-27 14:00:00,2005-03-30 12:00:00,51.5308895141056,-0.237011005357313,6715744.68979,-26383.9444288,522275.07014501316,182857.63016460979
13,Hammersmith and Fulham,HF4,Hammersmith and Fulham - Shepherds Bush,Roadside,2017-10-27 00:00:00,2011-10-31 00:00:00,51.5045625671557,-0.224670007031603,6711035.01276,-25010.1507793,523201.9659991495,179950.9811314482
14,Haringey,HG4,Haringey  - Priory Park South,Urban Background,,2012-10-25 00:00:00,51.5839769007709,-0.125400278484885,6725249.88218781,-13959.4951462721,529864.0970277847,188952.92818186493
14,Haringey,HG3,Haringey - Bounds Green,Roadside,2001-03-11 23:45:00,1999-06-21 00:15:00,51.6059499474804,-0.123441120322547,6729187.36255,-13741.4026573,529937.0780082418,191399.63569089936
14,Haringey,HG1,Haringey - Haringey Town Hall,Roadside,,1994-11-29 12:00:00,51.599302,-0.068218,6727995.87648,-7593.99302294,533780.0630479418,190760.06989739984
14,Haringey,HG2,Haringey - Priory Park,Urban Background,2012-10-25 00:00:00,1996-03-29 00:00:00,51.586029,-0.126486,6725617.52937,-14080.3571125,529783.0409375381,189179.17670095357
15,Harrow,HR2,Harrow - Pinner Road,Roadside,,2003-06-16 00:00:00,51.588417,-0.362989,6726045.37632,-40407.7506436,513395.02128969436,189051.3530284661
15,Harrow,HR1,Harrow - Stanmore,Urban Background,,1999-04-10 10:00:00,51.617327,-0.298775,6731226.83276,-33259.4808618,517767.9773560849,192367.54218475116
16,Havering,HV2,Havering - Harold Hill,Suburban,2000-11-12 14:45:00,1998-03-31 23:00:00,51.6065992159427,0.225359558329898,6729303.73779,25086.9112787,554084.0564177642,192149.63230865213
16,Havering,HV1,Havering - Rainham,Roadside,,1995-12-08 00:00:00,51.520787459334,0.205460705694044,6713943.19288,22876.155358,552994.2321343904,182566.77488751474
16,Havering,HV3,Havering - Romford,Roadside,,1998-12-22 10:00:00,51.572976,0.179079,6723279.28089,19934.9830918,550991.4084352484,188314.59317095857
17,Hillingdon,LH2,Heathrow Airport,Industrial,2011-02-24 00:00:00,1999-01-01 00:00:00,51.4792338864893,-0.440530703282971,6706511.8675,-49036.6809724,508282.8429805358,176793.3052505767
17,Hillingdon,LH0,Hillingdon - Harlington,Urban Background,,2004-01-01 00:00:00,51.48878,-0.441627,6708212.94408,-49161.6927606,508184.1300209663,177853.1568895369
17,Hillingdon,HI2,Hillingdon - Hillingdon Hospital,Roadside,2011-06-01 00:00:00,2002-09-25 11:30:00,51.526115,-0.459128,6714890.36587,-51109.8951689,506881.8499231154,181978.89833398085
17,Hillingdon,HI0,Hillingdon - Keats Way,Suburban,,1996-08-02 00:00:00,51.496309,-0.460826,6709559.07689,-51298.9156643,506833.78138298413,178662.14428905904
17,Hillingdon,HI3,Hillingdon - Oxford Avenue,Roadside,2011-06-01 00:00:00,2005-03-01 12:00:00,51.481131839058,-0.423760323968,6706845.73371,-47172.7834825,509442.6971070719,177029.28119432702
17,Hillingdon,HI1,Hillingdon - South Ruislip,Roadside,2011-06-01 00:00:00,1994-01-01 00:00:00,51.552264,-0.402779,6719570.41543,-44837.1531822,510726.7619643949,184970.34358058422
18,Hounslow,HS1,Hounslow - Brentford,Roadside,2003-01-01 00:00:00,1993-04-01 00:00:00,51.489321,-0.310002,6708309.66371,-34509.2647849,517319.7371804351,178116.0383697005
18,Hounslow,HS5,Hounslow - Brentford,Roadside,2012-04-01 00:00:00,2003-06-02 13:00:00,51.489398,-0.310081,6708323.42981,-34518.0590247,517314.0556938613,178124.47360210321
18,Hounslow,HS1,Hounslow - Brentford,Roadside,2003-01-01 00:00:00,1993-04-01 00:00:00,51.489321,-0.310002,6708309.66371,-34509.2647849,517319.7371804351,178116.0383697005
18,Hounslow,HS5,Hounslow - Brentford,Roadside,2012-04-01 00:00:00,2003-06-02 13:00:00,51.489398,-0.310081,6708323.42981,-34518.0590247,517314.0556938613,178124.47360210321
18,Hounslow,HS3,Hounslow - Brentford,Roadside,2003-01-01 00:00:00,1999-03-20 12:00:00,51.489321,-0.310002,6708309.66371,-34509.2647849,517319.7371804351,178116.0383697005
18,Hounslow,HS4,Hounslow - Chiswick High Road,Roadside,2012-04-01 00:00:00,1999-08-26 11:45:00,51.492507,-0.257252,6708879.27796,-28637.1616456,520972.96114143805,178556.1533884801
18,Hounslow,HS2,Hounslow - Cranford,Suburban,2012-04-01 00:00:00,1999-01-02 18:00:00,51.482982,-0.411895,6707176.45353,-45851.9416603,510262.0298404869,177252.8105715785
18,Hounslow,HS9,Hounslow - Feltham,Roadside,2012-04-01 00:00:00,2009-08-19 00:00:00,51.4473877655456,-0.408732837243793,6700816.26812,-45499.9313125,510567.5713969804,173299.73116908
18,Hounslow,HS7,Hounslow - Hatton Cross,Urban Background,2012-04-01 00:00:00,2006-01-05 00:00:00,51.463402,-0.427525,6703677.17104,-47591.8653014,509223.65814772615,175052.21200070693
18,Hounslow,HS6,Hounslow - Heston Road,Roadside,2012-04-01 00:00:00,2006-04-13 00:00:00,51.479129,-0.36476,6706487.73751,-40604.8974618,513543.9834738354,176896.4233655189
18,Hounslow,HS8,Hounslow and Ealing - Gunnersbury Avenue,Roadside,2015-02-09 00:00:00,2012-02-09 00:00:00,51.500676298573,-0.284383168481281,6710340.02137534,-31657.3895055139,519068.4846843151,179420.02981524201
19,Islington,IS6,Islington - Arsenal,Urban Background,,2007-03-14 00:00:00,51.557895,-0.106989,6720578.5826,-11909.9610005,531214.5332361056,186085.71430647562
19,Islington,IS5,Islington - Duncan Terrace,Roadside,2009-03-11 00:00:00,2006-08-04 00:00:00,51.5322658877275,-0.104413186512037,6715990.98676,-11623.2227546,531466.9198156691,183240.61728125074
19,Islington,IS4,Islington - Foxham Gardens,Urban Background,2009-03-11 00:00:00,2006-04-20 00:00:00,51.5600403385285,-0.131679425163847,6720962.71416,-14658.4865572,529497.1537026775,186280.24662100806
19,Islington,IS2,Islington - Holloway Road,Roadside,,2000-07-12 06:45:00,51.555378,-0.116146,6720127.92666,-12929.3135777,530587.0751162632,185789.456222607
19,Islington,IS1,Islington - Upper Street,Urban Background,2007-03-14 00:00:00,1994-05-13 01:00:00,51.5407003385595,-0.103269578193151,6717500.4632,-11495.9168589,531521.909135967,184180.50505219825
20,Kensington and Chelsea,KC2,Kensington and Chelsea - Cromwell Road,Roadside,2017-10-27 00:00:00,1998-05-10 20:00:00,51.49550391,-0.178809464,6709415.12178,-19904.9784815,526409.3612844325,179021.9361089924
20,Kensington and Chelsea,KC5,Kensington and Chelsea - Earls Court Rd,Kerbside,2017-10-27 00:00:00,2002-05-01 00:00:00,51.49019756,-0.190863311,6708466.37696,-21246.8065916,525587.3462759093,178411.16913409228
20,Kensington and Chelsea,KG2,Kensington and Chelsea - Green Screen BG,Urban Background,2014-10-31 00:00:00,2013-10-30 00:00:00,51.4894131144322,-0.193640886158949,,,525396.6983045454,178319.18414370745
20,Kensington and Chelsea,KG1,Kensington and Chelsea - Green Screen RS,Roadside,2014-10-31 00:00:00,2013-10-30 00:00:00,51.4894131144322,-0.193640886158949,,,525396.6983045454,178319.18414370745
20,Kensington and Chelsea,KC4,Kensington and Chelsea - Kings Road,Roadside,2017-10-26 00:00:00,2000-09-27 14:15:00,51.48743685,-0.168397129,6707972.82158,-18745.8826513,527154.4752007762,178142.9865315425
20,Kensington and Chelsea,KC3,Kensington and Chelsea - Knightsbridge,Roadside,2017-10-26 00:00:00,2000-03-28 11:30:00,51.49913951,-0.164337605,6710065.20988,-18293.9785068,527403.6415323762,179451.27355418119
20,Kensington and Chelsea,KC1,Kensington and Chelsea - North Ken,Urban Background,,1995-03-17 00:00:00,51.5210467476039,-0.213492139585065,6713983.58013,-23765.836267,523932.86720379506,181802.76227638446
20,Kensington and Chelsea,KC7,Kensington and Chelsea - North Ken FDMS,Urban Background,2018-03-01 00:00:00,2003-11-21 00:00:00,51.5210467476039,-0.213492139585065,6713986.93682,-23760.7189562,523932.86720379506,181802.76227638446
20,Kensington and Chelsea,KF1,Kensington and Chelsea - North Ken FIDAS,Urban Background,,2017-02-20 00:00:00,51.5210467476039,-0.213492139585065,6714219.73046,-17221.1247886,523932.86720379506,181802.76227638446
20,Kensington and Chelsea,WE0,Kensington and Chelsea - Pembroke Road,Urban Background,2007-09-30 00:00:00,1987-01-01 00:00:00,51.4942847451596,-0.199340350918702,6709197.13236,-22190.4663588,524987.7472647907,178851.11906544532
21,Kingston,KT1,Kingston - Chessington,Suburban,2008-07-07 12:00:00,1996-01-24 14:00:00,51.3566466913867,-0.316770841962737,6684624.52196,-35262.7688254,517188.7839273197,163352.94386773495
21,Kingston,A30,Kingston - Kingston Bypass A3,Roadside,2007-09-30 00:00:00,1997-03-20 00:00:00,51.373553348648,-0.291969827871431,6687638.8951,-32501.9325656,518871.5660245102,165272.7204701577
21,Kingston,KT2,Kingston - Town Centre,Roadside,2000-06-23 08:45:00,1996-04-26 06:00:00,51.4144307605309,-0.301706822060131,6694931.73731,-33585.8498006,518088.64567485626,169802.176271316
21,Kingston,KT5,Kingston Upon Thames - Cromwell Road,Roadside,,2018-03-12 00:00:00,51.412308,-0.29658478,6694552.86016453,-33015.6666866351,518450.2639316188,169574.41031954606
21,Kingston,KT6,Kingston Upon Thames - Kingston Vale,Roadside,,2018-03-12 00:00:00,51.4355006647773,-0.257029893767993,6698693.31606622,-28612.4368929022,521139.2548398494,172217.89841636067
21,Kingston,KT3,Kingston Upon Thames - Sopwith Way,Roadside,2016-07-13 00:00:00,2015-03-10 00:00:00,51.413691,-0.302269,6694799.70046663,-33648.431162592,518051.4636108978,169719.01560320143
21,Kingston,KT4,Kingston Upon Thames - Tolworth Broadway,Roadside,,2015-04-13 00:00:00,51.379312,-0.281259,6688665.88821522,-31309.6086610253,519601.93382779293,165930.4457197702
22,Lambeth,LB5,Lambeth - Bondway Interchange,Industrial,,2005-02-01 00:00:00,51.4854867739729,-0.124545234819213,6707629.96897,-13860.2784792,530204.0988355392,178003.23914647006
22,Lambeth,LB4,Lambeth - Brixton Road,Kerbside,,2003-12-18 00:00:00,51.464113541162,-0.11458102695123,6703810.46654,-12751.5363509,530957.014301086,175644.5238945495
22,Lambeth,LB1,Lambeth - Christchurch Road,Roadside,2010-12-02 00:00:00,2000-09-24 09:00:00,51.444249,-0.121731,6700255.65312,-13551.0329338,530517.0830219279,173423.03262663377
22,Lambeth,LB3,Lambeth - Loughborough Junct,Urban Background,2010-12-20 00:00:00,2001-12-19 11:00:00,51.464866,-0.099161,6703938.76106,-11038.5520266,532025.7958302067,175755.8787877897
22,Lambeth,LB6,Lambeth - Streatham Green,Urban Background,,2009-08-17 00:00:00,51.4282131429499,-0.13186863879576,6697392.0894,-14679.5497223,529858.167881814,171622.0008958554
22,Lambeth,LB2,Lambeth - Vauxhall Cross,Roadside,2003-07-01 00:00:00,2001-12-19 15:00:00,51.4849123099475,-0.125173736606014,6707521.51445,-13934.2766197,530162.1043462574,177938.24676817766
23,Lewisham,LW1,Lewisham - Catford,Urban Background,2021-11-03 00:00:00,1996-08-02 15:00:00,51.445468,-0.020266,6700473.37417,-2256.00080042,537563.4071265172,173744.25313367162
23,Lewisham,LW5,Lewisham - Deptford,Urban Background,,2019-09-20 00:00:00,51.4795312838203,-0.0252606031340197,6703907.50224776,-1788.70865141176,537114.2372888314,177522.3213961392
23,Lewisham,HP1,Lewisham - Honor Oak Park,Urban Background,,2018-11-27 00:00:00,51.4496728960354,-0.0374153592115306,,,536359.3452150553,174179.7183808389
23,Lewisham,LW6,Lewisham - Laurence House Catford,Roadside,,2021-11-09 00:00:00,51.4447808,-0.0221832,6700350.63522365,-2469.42252816535,537432.264155407,173664.24575064145
23,Lewisham,LW4,Lewisham - Loampit Vale,Roadside,,2012-07-10 00:00:00,51.4646910611736,-0.0160682432041527,6703907.50224776,-1788.70865141176,537797.1585991814,175889.51908799642
23,Lewisham,LW3,Lewisham - Mercury Way,Industrial,2016-02-03 00:00:00,2010-01-01 00:00:00,51.4811412184719,-0.0456708566668043,6706847.41027,-5084.05650824,535692.4143870937,177663.29944835138
23,Lewisham,LW2,Lewisham - New Cross,Roadside,,2002-03-31 13:45:00,51.474954,-0.039641,6705741.5303,-4412.81593454,536129.4637716425,176986.54414164365
27,Richmond,TD5,London Teddington Bushy Park ,Suburban,,2004-11-15 00:00:00,51.4252560360937,-0.345608290872898,6696694.23761,-38484.7706099,515009.0258970031,170936.02968525005
33,Westminster,MR8,Marylebone Road - BAM,Kerbside,,2012-01-11 00:00:00,51.5225093597419,-0.154622154656843,6714250.73471,-17208.8800817,528012.3563053494,182066.7453170504
24,Merton,ME2,Merton - Merton Road,Roadside,,2011-06-29 00:00:00,51.4161384794862,-0.192230805042824,6695236.54926,-21399.0353321,525695.6937846808,170174.15906809663
24,Merton,ME1,Merton - Morden Civic Centre,Roadside,2017-01-27 00:00:00,2010-01-13 00:00:00,51.40105,-0.195929,6692543.79001,-21810.7165116,525479.8766755572,168490.13737605876
24,Merton,ME9,Merton - Morden Civic Centre 2,Roadside,,2017-01-27 00:00:00,51.40162,-0.19589212,6692543.79001,-21810.7165116,525480.8814615518,168553.57861337595
24,Merton,ME7,Merton - Willow Lane Industrial Estate,Industrial,2016-04-01 00:00:00,2015-08-05 00:00:00,51.3943415638,-0.165161044588,6691346.85700233,-18385.6433824213,527638.4165317379,167797.35690694058
25,Newham,TL6,Newham - Britannia Gate,Roadside,,2020-12-04 00:00:00,51.503858,0.020574415,6709055.39086079,-16687.4595868565,540221.7845712597,180314.0027172993
25,Newham,NM2,Newham - Cam Road,Roadside,,1998-08-18 00:00:00,51.537598,-0.002138,6716945.21884,-238.001071316,538543.3094830855,184022.2426763122
25,Newham,NM4,Newham - East Ham Town Hall,Roadside,,2022-12-19 00:00:00,51.5330166040173,0.0550002064487128,6716125.3278,6122.59497,542519.5369113887,183622.61114433588
25,Newham,TL5,Newham - Hoola Tower,Roadside,,2021-03-08 00:00:00,51.508198,0.015002152,6709055.39086079,-16687.4595868565,539821.8340397999,180785.89839370392
25,Newham,NM1,Newham - Tant Avenue,Urban Background,2003-12-31 00:00:00,1998-01-01 00:00:00,51.514764,0.011989,6712859.64322,1334.60937512,539592.6944528159,181510.20930698627
25,Newham,NM3,Newham - Wren Close,Urban Background,,2003-03-21 00:00:00,51.514727,0.014554,6712853.02465,1620.14386901,539770.7520923705,181510.99172892992
26,Redbridge,RB3,Redbridge - Fullwell Cross,Kerbside,2012-03-30 10:45:00,1999-11-20 14:00:00,51.593935,0.085516,6727034.09695,9519.59757468,544442.4717983716,190455.91237796063
26,Redbridge,RB4,Redbridge - Gardner Close,Roadside,,1999-11-21 13:00:00,51.57661,0.030858,6723930.18984,3435.0968469,540710.756143587,188422.9564084532
26,Redbridge,RB2,Redbridge - Ilford Broadway,Kerbside,2003-06-01 00:00:00,1999-12-01 14:00:00,51.5583461865157,0.0699915095238029,6720659.36787,7791.41920004,543479.4053101067,186468.27416698606
26,Redbridge,RB7,Redbridge - Ley Street,Urban Background,,2014-05-15 00:00:00,51.5694843315237,0.0829074748964946,6722606.75352,9108.2720562,544339.2926618911,187732.1260404657
26,Redbridge,RB1,Redbridge - Perth Terrace,Urban Background,2014-05-13 00:00:00,1999-11-21 10:00:00,51.569221,0.081821,6722606.75352,9108.2720562,544264.8444493441,187700.70236593738
26,Redbridge,RB5,Redbridge - South Woodford,Roadside,2012-03-30 10:45:00,2003-11-19 00:00:00,51.595851,0.020087,6727377.43579,2236.07461156,539905.4164783652,190541.68063386524
33,Westminster,CE1,Regent Street facade (The Crown Estate),Roadside,,2020-05-01 00:00:00,51.5111824979787,-0.139114122784456,6712207.95182978,-15479.0357379246,529120.0823725065,180834.54829210974
27,Richmond,RI2,Richmond Upon Thames - Barnes Wetlands,Suburban,,2001-03-29 10:00:00,51.476168,-0.230427,6705958.50423,-25651.016305,522878.8054592996,176784.06738979145
27,Richmond,RI1,Richmond Upon Thames - Castelnau,Roadside,,2000-06-14 00:15:00,51.480189,-0.237335,6706677.20458,-26420.0113474,522388.3844320158,177219.59762032982
27,Richmond,RHG,Richmond Upon Thames - Chertsey Road,Roadside,2020-08-06 00:00:00,2016-05-24 00:00:00,51.4531422511004,-0.341218138106469,6701844.17704606,-37984.2293834411,515243.98411654925,174043.65899719502
28,Southwark,SK5,Southwark - A2 Old Kent Road,Roadside,,2010-11-24 00:00:00,51.4804994936467,-0.0595528932573422,6706732.70383,-6629.39775267,534730.5349781716,177566.30760368696
28,Southwark,SK9,Southwark - A2 Old Kent Road FIDAS,Roadside,,2010-11-24 00:00:00,51.4804994936467,-0.0595528932573422,6706732.70383,-6629.39775267,534730.5349781716,177566.30760368696
28,Southwark,SK6,Southwark - Elephant and Castle,Urban Background,,2013-01-23 00:00:00,51.4931557048667,-0.101527038274853,6709004.43394458,-11305.3848459833,531779.8982985679,178897.13789028974
28,Southwark,SK7,Southwark - Heygate,Urban Background,2015-11-11 00:00:00,2014-08-26 00:00:00,51.4929813788003,-0.0985378910481832,6708964.09395799,-10969.1878553268,531987.8723658518,178883.14030896162
28,Southwark,SK1,Southwark - Larcom Street,Urban Background,2009-06-17 12:00:00,1993-03-01 00:00:00,51.490548,-0.09661,6708529.03021,-10754.5760055,532128.7198941202,178616.051505887
28,Southwark,SKA,Southwark - Lower Road,Roadside,,2020-11-24 00:00:00,51.4965604167321,-0.0530504472531612,6709604.03228416,-5905.54877457732,535134.4771972013,179364.09405642212
28,Southwark,SK2,Southwark - Old Kent Road,Roadside,2006-04-21 00:00:00,1994-05-03 00:00:00,51.4819456792926,-0.0627176235171689,6706991.20756,-6981.6939137,534506.5623365226,177721.2882687873
28,Southwark,SKC,Southwark - South Circular Road,Roadside,,2021-07-22 00:00:00,51.442633,-0.077653974,6699967.03434404,-8644.40084375411,533584.3690608493,173322.81285107357
28,Southwark,SK8,Southwark - Tower Bridge Road,Roadside,,2019-06-01 00:00:00,51.5013906712066,-0.0782034373606952,6710467.7700201,-8705.56682527626,533374.6951188738,179855.02904366152
28,Southwark,SKB,Southwark - Vicarage Grove,Roadside,,2021-01-26 00:00:00,51.4735803479615,-0.0877818536754426,6705496.02929574,-9771.83125203992,532790.7806997607,176745.39882367654
29,Sutton,ST8,Sutton - Beddington Lane ,Industrial,2020-10-16 00:00:00,2012-04-04 00:00:00,51.3835652277943,-0.136417861473301,6689424.4883013,-15185.9668743151,529668.2117320754,166649.59459735392
29,Sutton,ST5,Sutton - Beddington Lane north,Industrial,,2005-12-01 00:00:00,51.389286904505,-0.141661524779893,6690449.76537,-15766.2908005,529287.2567871135,167276.5183003684
29,Sutton,ST9,Sutton - Beddington Village,Roadside,,2020-10-16 00:00:00,51.3712010773161,-0.131948824988095,6687219.43013176,-14688.4760084455,530014.1740445144,165282.75919864367
29,Sutton,ST3,Sutton - Carshalton,Suburban,2016-07-13 00:00:00,1995-05-05 07:00:00,51.365318,-0.165936,6686170.43427,-18471.9110243,527665.2484325605,164568.9105094137
29,Sutton,ST2,Sutton - North Cheam,Urban Background,2002-05-03 00:00:00,1995-04-25 17:00:00,51.3771892138334,-0.222044077436931,6688287.29725,-24717.8336339,523727.95726777293,165792.67573383352
29,Sutton,ST1,Sutton - Robin Hood School,Roadside,2002-04-26 00:00:00,1995-04-26 07:00:00,51.365744,-0.195563,6686246.38867,-21769.973578,525601.9620768018,164565.11347360729
29,Sutton,ST7,Sutton - Therapia Lane,Industrial,2012-02-10 00:00:00,2010-02-09 00:00:00,51.3858391292126,-0.136339857220486,6689830.08727,-15177.2834806,529667.210833628,166902.56435807247
29,Sutton,ST4,Sutton - Wallington,Kerbside,,2002-07-17 00:00:00,51.3586596124998,-0.149723946604927,6684987.88329,-16663.3032574,528812.3299441122,163856.92529602983
29,Sutton,ST6,Sutton - Worcester Park,Kerbside,,2008-11-04 00:00:00,51.377923,-0.240414,6688418.16328,-26762.7640596,522447.72498111794,165843.42534402647
30,Tower Hamlets,TH3,Tower Hamlets - Bethnal Green,Urban Background,2009-11-02 00:00:00,1999-10-24 12:00:00,51.526737,-0.053869,6715001.65788,-5996.66964954,534988.4265246156,182717.90242784272
30,Tower Hamlets,TH4,Tower Hamlets - Blackwall,Roadside,,2006-09-08 00:00:00,51.5150461674013,-0.00841849265642741,6712915.63292,-933.636569283,538176.0883882141,181502.8491503962
12,Hackney,CW3,Tower Hamlets - Jubilee Park,Urban Background,,2022-01-17 00:00:00,51.5029878731458,-0.0180219908165375,,,537546.1726419665,180144.00941454998
30,Tower Hamlets,TH2,Tower Hamlets - Mile End Road,Roadside,,1994-03-10 00:00:00,51.5225294860844,-0.0421550991900347,6714255.02857,-4688.33167425,535813.380537924,182271.74872896777
30,Tower Hamlets,TH6,Tower Hamlets - Millwall Park,Urban Background,2016-11-26 00:00:00,2015-07-06 00:00:00,51.4891342634,-0.0129769309432,6708276.27893065,-1444.5853446565,537938.0818738977,178613.13936204056
30,Tower Hamlets,TH1,Tower Hamlets - Poplar,Urban Background,2013-07-02 00:00:00,1994-01-04 17:00:00,51.510012,-0.019866,6712009.64865,-2211.4730041,537397.0786767378,180921.55036901834
30,Tower Hamlets,TH5,Tower Hamlets - Victoria Park,Urban Background,2016-11-26 00:00:00,2012-07-25 00:00:00,51.5405194915241,-0.033307388878,6717468.09487173,-3707.7615695525,536373.3023601677,184288.5094997076
31,Waltham Forest,WL3,Waltham Forest - Chingford,Roadside,2007-04-18 00:00:00,2003-07-14 12:00:00,51.6251928602333,-0.0225973251092037,6732637.17949,-2515.52272445,536861.2030047202,193723.38240581992
31,Waltham Forest,WL4,Waltham Forest - Crooked Billet,Kerbside,2011-04-01 00:00:00,2007-11-01 00:00:00,51.601718495597,-0.016498263136,6728428.95552,-1836.57825127,537354.1519533461,191124.6951393076
31,Waltham Forest,WL1,Waltham Forest - Dawlish Road,Urban Background,2011-04-01 00:00:00,1998-07-05 08:00:00,51.562422,-0.004891,6721389.18152,-544.46362947,538277.1169277761,186777.1980901437
31,Waltham Forest,WL5,Waltham Forest - Leyton,Roadside,2011-04-01 00:00:00,2007-09-20 00:00:00,51.556257676576,-0.013629679065,6720285.4254,-1517.24893319,537690.130506839,186075.30046790926
31,Waltham Forest,WL2,Waltham Forest - Mobile,Roadside,2001-10-12 11:00:00,1998-07-09 12:15:00,51.564725703428,0.00399595335237289,6721801.71074,444.82749242,538885.9770683416,187050.1881188973
32,Wandsworth,WAA,Wandsworth - Battersea,Roadside,,2012-06-19 00:00:00,51.4794395281222,-0.141786953606306,6706543.24163182,-15783.6514765835,529024.2491138082,177300.3189782066
32,Wandsworth,WA1,Wandsworth - Garratt Lane,Roadside,1996-02-26 00:00:00,1995-04-01 00:00:00,51.4548722085,-0.193003999857021,6702153.22021,-21485.1069851,525535.6964147576,174479.64375872439
32,Wandsworth,WA4,Wandsworth - High Street,Roadside,2007-08-30 08:45:00,1998-01-31 23:00:00,51.4564354037312,-0.191157408342927,6702432.48271,-21279.5453581,525659.6802092877,174656.62304222744
32,Wandsworth,WAC,Wandsworth - Lavender Hill (Clapham Jct),Roadside,,2016-04-14 00:00:00,51.4636903568111,-0.166713485994806,6703728.69446334,-18558.4603693134,527337.4671402614,175505.52755044613
32,Wandsworth,WA9,Wandsworth - Putney,Urban Background,,2011-01-04 00:00:00,51.4650325059122,-0.215824580947572,6703968.51315,-24025.4824518,523922.89354318444,175570.5075470399
32,Wandsworth,WA7,Wandsworth - Putney High Street,Kerbside,,2009-07-09 00:00:00,51.463429,-0.215871,6703681.99537,-24030.649797,523924.01389633736,175392.13358044374
32,Wandsworth,WA8,Wandsworth - Putney High Street Facade,Roadside,,2010-04-23 00:00:00,51.4637206047191,-0.215890144123119,6703734.09916,-24032.7809111,523921.8942558442,175424.52499874824
32,Wandsworth,WA3,Wandsworth - Roehampton,Rural,2000-11-24 13:45:00,1994-10-31 00:00:00,51.4569204685076,-0.245562490498382,6702519.14075,-27335.8914002,521879.15274386137,174618.6140397969
32,Wandsworth,WA6,Wandsworth - Tooting,Roadside,2009-08-28 13:30:00,2008-07-01 00:00:00,51.425284,-0.164452,6696869.13346,-18306.7128999,527601.5560385823,171239.06151103578
32,Wandsworth,WAB,Wandsworth - Tooting High Street,Roadside,,2015-06-11 00:00:00,51.429331,-0.166524,6697591.67537674,-18537.3668848591,527446.2662711305,171685.4396652103
32,Wandsworth,WA2,Wandsworth - Wandsworth Town Hall,Urban Background,,1994-10-11 14:00:00,51.456962,-0.191074,6702526.5605,-21270.2603838,525664.0277856487,174715.31867424346
33,Westminster,CE2,Waterloo Place (The Crown Estate),Roadside,,2020-12-21 00:00:00,51.5075819137762,-0.133068372704093,6711575.01117305,-14813.1034901092,529549.7557595817,180444.88169150392
33,Westminster,BP0,Westminster - Bridge Place,Urban Background,1999-11-21 13:45:00,1990-07-03 00:00:00,51.4938505656999,-0.143808451030166,6709119.5015,-16008.6835404,528843.2652664983,178899.1271357202
33,Westminster,WMA,Westminster - Buckingham Palace Road,Roadside,2020-04-27 10:00:00,2018-02-18 00:00:00,51.4932327916861,-0.147391757027028,,,528596.2964320243,178824.13521941123
33,Westminster,WMC,Westminster - Cavendish Square,Roadside,,2018-05-31 12:00:00,51.5168016452062,-0.145657269364411,6713226.17707297,-16227.821409371,528650.2790821667,181447.82162861826
33,Westminster,WM4,Westminster - Charing Cross Library,Roadside,2011-01-11 00:00:00,2007-02-01 00:00:00,51.510205,-0.128177,6712044.16901,-14268.5983714,529881.6892309402,180745.21414464666
33,Westminster,WM5,Westminster - Covent Garden,Urban Background,,2009-07-10 00:00:00,51.5119769825798,-0.12162720332856,6712361.11612,-13539.4783411,530331.0710271685,180953.88672402911
33,Westminster,GV2,Westminster - Duke Street (Grosvenor),Roadside,,2019-08-22 16:00:00,51.5129998832095,-0.150913488159214,6712548.93416217,-16799.8922725577,528296.3250621926,181015.8720231856
33,Westminster,GV1,Westminster - Ebury Street (Grosvenor),Roadside,,2018-12-11 09:00:00,51.493492,-0.149906,6709055.39086079,-16687.4595868565,528421.0587306631,178848.5426683701
33,Westminster,WMD,Westminster - Elizabeth Bridge,Roadside,,2020-04-27 00:00:00,51.4922482333024,-0.147114752900186,6708833.01244356,-16376.739381027,528618.2941235718,178715.14833184343
33,Westminster,WM0,Westminster - Horseferry Road,Urban Background,,2001-07-17 00:00:00,51.494681,-0.131938,6709267.98298,-14687.2709763,529664.8033924331,179012.42475307296
33,Westminster,MY1,Westminster - Marylebone Road,Kerbside,,1997-05-26 12:00:00,51.52254,-0.15459,6714250.73471,-17208.8800817,528014.5007403663,182070.20849905
33,Westminster,MY7,Westminster - Marylebone Road FDMS,Kerbside,2021-12-21 08:00:00,2004-01-22 12:00:00,51.52254,-0.15459,6714250.73471,-17208.8800817,528014.5007403663,182070.20849905
33,Westminster,WM6,Westminster - Oxford Street,Kerbside,,2011-01-01 00:00:00,51.5139287404213,-0.152792701881935,6712710.23315,-17008.8057704,528163.3412774755,181115.85958817144
33,Westminster,WMZ,Westminster - Oxford Street 2,Kerbside,2016-09-08 00:00:00,2016-05-13 00:00:00,51.5139287404213,-0.152792701881935,6712710.23315,-17008.8057704,528163.3412774755,181115.85958817144
33,Westminster,WMB,Westminster - Oxford Street East,Roadside,,2018-06-05 00:00:00,51.516066,-0.13516388,6712710.23315,-17008.8057704,529380.3147910808,181384.5256745981
33,Westminster,NB1,Westminster - Strand (Northbank BID),Roadside,,2015-04-28 00:00:00,51.5119701188277,-0.116713103528546,6712364.87549212,-12992.6543679369,530672.028384808,180961.88698817822
33,Westminster,WM8,Westminster - Victoria,Urban Background,2016-04-04 00:00:00,2014-01-06 00:00:00,51.497066177578,-0.142438820740121,6709694.46727186,-15856.2169939846,528929.2530658768,179259.08439609088
33,Westminster,WM9,Westminster - Victoria (Victoria BID),Roadside,2017-09-20 00:00:00,2016-08-08 00:00:00,51.4977331829735,-0.14424140916201,6709818.70995547,-16057.0573104942,528802.2686476669,179330.07545130805
33,Westminster,VS1,Westminster - Victoria Street,Kerbside,2008-04-01 00:00:00,2003-05-02 15:00:00,51.4992450135925,-0.131285173980659,6710084.07594,-14614.5987162,529697.1560443522,179521.0558164944
